City_ID,City,Lat,Lng,Max Temp,Humidity,Cloudiness,Wind Speed,Country,Date
0,port alfred,-33.5906,26.891,21.77,79,5,3.13,ZA,1701931119
1,papatowai,-46.5619,169.4708,12.07,65,100,6.08,NZ,1701931120
2,bolotnoye,55.6717,84.3981,-22.04,89,100,3.09,RU,1701931122
3,nybro,56.7446,15.9071,1.25,99,100,3.12,SE,1701931123
4,punta arenas,-53.15,-70.9167,7.06,81,0,8.75,CL,1701931011
5,igarka,67.4667,86.5833,-22.78,96,100,4.99,RU,1701931125
6,margaret river,-33.95,115.0667,19.73,56,100,7.6,AU,1701931127
7,codrington,-38.2667,141.9667,19.55,45,6,5.01,AU,1701931128
8,opuwo,-18.0607,13.84,25.27,45,86,0.97,NA,1701931130
9,adamstown,-25.066,-130.1015,22.55,81,6,5.89,PN,1701931131
10,olonkinbyen,70.9221,-8.7187,-3.59,85,100,6.18,SJ,1701931132
11,vilyuchinsk,52.9306,158.4028,-6.71,83,6,1.94,RU,1701931134
12,hillsborough,37.5741,-122.3794,13.55,89,75,3.6,US,1701931135
13,lospalos,-8.5186,127.0025,29.58,59,100,1.83,TL,1701931136
14,queenstown,-31.8976,26.8753,23.97,48,21,3.65,ZA,1701931137
15,crane,31.3974,-102.3501,12.36,76,100,7.45,US,1701931139
16,waitangi,-43.9535,-176.5597,13.79,95,100,3.58,NZ,1701931140
17,east london,-33.0153,27.9116,22.52,78,0,6.17,ZA,1701931141
18,anna,51.4842,40.4299,-5.92,91,91,4.85,RU,1701931143
19,ribeira grande,38.5167,-28.7,15.43,79,100,0.45,PT,1701931092
20,ziro,27.6333,93.8333,11.41,46,100,0.68,IN,1701931145
21,edinburgh of the seven seas,-37.0676,-12.3116,14.1,76,10,5.91,SH,1701931147
22,pangody,65.85,74.4859,-27.08,95,100,5.18,RU,1701931148
23,thompson,55.7435,-97.8558,-7.91,93,0,2.06,CA,1701931150
24,russellville,35.2784,-93.1338,4.43,81,0,0.0,US,1701931151
25,avarua,-21.2078,-159.775,25.03,83,75,7.2,CK,1701931152
26,hawaiian paradise park,19.5933,-154.9731,22.24,87,40,2.06,US,1701931154
27,kromeriz,49.2979,17.3931,1.42,93,100,2.4,CZ,1701931155
28,bukittinggi,-0.3091,100.3706,24.0,83,71,1.35,ID,1701930919
29,klyuchi,52.2667,79.1667,-15.46,71,100,5.95,RU,1701931158
30,arraial do cabo,-22.9661,-42.0278,23.75,91,10,10.38,BR,1701931159
31,suva,-18.1416,178.4415,27.71,78,75,3.09,FJ,1701930896
32,cabedelo,-6.9811,-34.8339,24.37,80,96,3.73,BR,1701931162
33,albany,42.6001,-73.9662,-2.4,80,13,0.45,US,1701931163
34,'ain benian,36.8028,2.9219,5.03,70,8,1.47,DZ,1701931165
35,porto velho,-8.7619,-63.9039,25.03,94,20,0.0,BR,1701931166
36,yellowknife,62.456,-114.3525,-7.71,93,100,2.57,CA,1701931167
37,vorkuta,67.5,64.0,-26.75,99,100,2.37,RU,1701931169
38,port mathurin,-19.6833,63.4167,26.32,75,13,2.6,MU,1701931170
39,egilsstadir,65.2653,-14.3948,-4.05,93,100,2.06,IS,1701931171
40,blackmans bay,-43.0167,147.3167,21.4,61,100,0.89,AU,1701931173
41,lincoln city,44.9582,-124.0179,10.44,95,100,4.92,US,1701931174
42,harper,4.375,-7.7169,25.79,83,17,0.9,LR,1701931175
43,lethbridge,49.7,-112.8186,1.54,93,75,2.06,CA,1701931177
44,hermanus,-34.4187,19.2345,23.06,59,1,1.22,ZA,1701931178
45,port elizabeth,-33.918,25.5701,23.94,83,40,5.14,ZA,1701931179
46,west island,-12.1568,96.8225,28.99,74,40,5.14,CC,1701931181
47,guiuan,11.0333,125.7247,27.86,79,100,6.37,PH,1701931182
48,dryden,49.7833,-92.7503,-2.84,93,75,3.6,CA,1701931183
49,gargalianoi,37.0667,21.6333,11.86,72,100,1.12,GR,1701931185
50,vorgashor,67.5833,63.95,-27.0,99,100,2.18,RU,1701931186
51,anadyr,64.75,177.4833,-20.72,84,100,12.0,RU,1701931187
52,atafu village,-8.5421,-172.5159,29.03,76,100,3.17,TK,1701931189
53,arar,30.9753,41.0381,15.01,63,0,4.12,SA,1701931123
54,aras-asan,8.8908,126.3033,27.88,80,75,4.84,PH,1701931191
55,cabo san lucas,22.8909,-109.9124,23.62,81,0,3.57,MX,1701931193
56,village of oak creek (big park),34.7809,-111.7623,13.47,47,0,0.0,US,1701931194
57,puerto natales,-51.7236,-72.4875,3.44,93,2,2.07,CL,1701931196
58,kruisfontein,-34.0033,24.7314,22.71,48,0,1.58,ZA,1701931197
59,dazhou,31.2159,107.5009,17.77,52,0,0.67,CN,1701931198
60,grytviken,-54.2811,-36.5092,-0.96,84,100,11.14,GS,1701931199
61,castillos,-34.1667,-53.8333,17.87,96,86,2.43,UY,1701931201
62,luderitz,-26.6481,15.1594,20.77,59,35,5.09,NA,1701931202
63,dudinka,69.4058,86.1778,-22.4,97,99,4.47,RU,1701931081
64,la'ie,21.6477,-157.9253,25.98,77,49,0.89,US,1701931205
65,amursk,50.2261,136.8994,-7.79,89,100,3.7,RU,1701931206
66,sisimiut,66.9395,-53.6735,-4.53,69,100,2.02,GL,1701931067
67,atar,20.5169,-13.0499,19.35,23,100,3.23,MR,1701931209
68,el porvenir,13.7617,-87.3458,22.63,83,29,2.97,HN,1701931210
69,hithadhoo,-0.6,73.0833,27.76,76,99,3.51,MV,1701931211
70,port-aux-francais,-49.35,70.2167,4.71,77,100,7.84,TF,1701931213
71,markovo,57.3206,107.0881,-34.4,92,99,1.78,RU,1701931214
72,mugia,43.1041,-9.2179,15.51,97,100,9.73,ES,1701931217
73,remire-montjoly,4.9167,-52.2667,26.02,94,75,1.54,GF,1701931218
74,tiksi,71.6872,128.8694,-29.67,98,99,3.53,RU,1701931219
75,udachny,66.4167,112.4,-25.88,100,99,0.97,RU,1701931221
76,puerto deseado,-47.7503,-65.8938,10.18,65,0,4.51,AR,1701931222
77,tura,25.5198,90.2201,19.11,83,100,0.73,IN,1701931224
78,qaisumah,28.3112,46.1273,17.98,36,0,3.09,SA,1701931225
79,iskateley,67.6803,53.1512,-14.43,96,100,4.47,RU,1701931227
80,bilibino,68.0546,166.4372,-34.2,100,100,1.14,RU,1701931228
81,wynyard,-41.0,145.7167,20.0,45,100,5.88,AU,1701931229
82,zhongxing,33.7039,118.6792,20.2,26,0,6.52,CN,1701931231
83,kirakira,-10.4544,161.9205,26.3,87,100,5.51,SB,1701931164
84,klaksvik,62.2266,-6.589,5.51,77,83,12.12,FO,1701931233
85,praia da vitoria,38.7333,-27.0667,15.98,88,20,3.25,PT,1701931235
86,daru,-9.0763,143.2092,28.07,72,100,3.63,PG,1701931236
87,pingliang,35.5392,106.6861,14.72,18,0,0.57,CN,1701931108
88,jamestown,42.097,-79.2353,0.77,96,100,3.13,US,1701931239
89,richards bay,-28.783,32.0377,21.17,85,100,3.48,ZA,1701930680
90,jiujiang,29.7333,115.9833,22.0,28,0,2.89,CN,1701931241
91,afaahiti,-17.75,-149.2833,22.93,92,100,6.71,PF,1701931243
92,alice springs,-23.7,133.8833,39.75,14,65,2.57,AU,1701931244
93,touggourt,33.1053,6.058,9.06,71,0,2.06,DZ,1701931245
94,tralee,52.2704,-9.7026,10.93,93,100,5.95,IE,1701931247
95,saipan,15.1355,145.701,27.39,89,75,4.63,MP,1701931248
96,aqsay,51.1678,52.995,-7.6,73,35,1.97,KZ,1701931249
97,ilulissat,69.2167,-51.1,1.01,47,75,7.72,GL,1701931251
98,invercargill,-46.4,168.35,12.32,66,100,6.54,NZ,1701931252
99,bethel,41.3712,-73.414,-0.91,74,0,0.89,US,1701931254
100,nacala,-14.5428,40.6728,31.62,58,40,6.17,MZ,1701931257
101,wailua homesteads,22.0669,-159.378,23.44,88,100,5.66,US,1701931258
102,ushuaia,-54.8,-68.3,6.81,81,75,10.73,AR,1701931113
103,mae sai,20.4335,99.8762,28.14,61,99,1.41,TH,1701931260
104,kingston,17.997,-76.7936,27.53,83,20,4.12,JM,1701931262
105,nova sintra,14.8667,-24.7167,21.41,70,100,6.43,CV,1701931263
106,ancud,-41.8697,-73.8203,8.21,91,16,1.1,CL,1701931264
107,college,64.8569,-147.8028,-13.03,77,100,2.06,US,1701931266
108,susuman,62.7833,148.1667,-43.9,96,99,0.45,RU,1701931267
109,fier,40.7239,19.5561,10.71,83,100,1.11,AL,1701931269
110,lorengau,-2.0226,147.2712,28.22,81,100,5.26,PG,1701931270
111,new norfolk,-42.7826,147.0587,22.06,32,100,2.28,AU,1701931271
112,gizo,-8.103,156.8419,28.0,82,100,10.0,SB,1701931273
113,touros,-5.1989,-35.4608,25.63,80,13,4.48,BR,1701931274
114,enewetak,11.3474,162.3373,27.7,81,8,9.77,MH,1701931275
115,longmen,24.9597,118.0889,23.34,27,9,1.52,CN,1701931277
116,kuta,-8.7233,115.1723,30.0,79,20,6.71,ID,1701931278
117,sandersville,32.9815,-82.8101,2.82,67,0,1.79,US,1701931281
118,tchintabaraden,15.8969,5.7985,20.01,19,26,3.75,NE,1701931282
119,glace bay,46.1969,-59.957,0.54,87,100,5.81,CA,1701931283
120,ulsan,35.5372,129.3167,10.73,36,0,3.0,KR,1701931285
121,upata,8.0086,-62.3989,21.2,97,98,3.03,VE,1701931286
122,vernon,50.2581,-119.2691,6.45,95,100,1.03,CA,1701931039
123,lebu,-37.6167,-73.65,11.24,93,10,6.23,CL,1701931289
124,aasiaat,68.7098,-52.8699,-6.54,80,100,5.47,GL,1701931292
125,tazovsky,67.4667,78.7,-21.18,96,100,6.95,RU,1701930705
126,guerrero negro,27.9769,-114.0611,18.17,82,0,4.53,MX,1701931296
127,mount isa,-20.7333,139.5,37.87,19,7,5.66,AU,1701931297
128,ha'il,27.5219,41.6907,17.01,42,0,2.06,SA,1701931298
129,mersa matruh,31.3525,27.2453,16.11,55,100,4.63,EG,1701931300
130,soledade,-28.8183,-52.5103,19.36,99,100,3.02,BR,1701931301
131,ialibu,-6.2821,143.9935,16.26,95,100,1.42,PG,1701931302
132,krasnoufimsk,56.6059,57.7669,-22.97,86,15,1.3,RU,1701931304
133,ust-nera,64.5667,143.2,-44.89,91,76,1.27,RU,1701931305
134,merizo village,13.2658,144.6691,30.32,79,64,6.41,GU,1701931306
135,vilhena,-12.7406,-60.1458,20.65,97,20,0.96,BR,1701931308
136,acajutla,13.5928,-89.8275,26.5,64,100,3.21,SV,1701931309
137,kodiak,57.79,-152.4072,2.73,56,0,6.69,US,1701931310
138,inongo,-1.95,18.2667,21.38,98,100,1.75,CD,1701931312
139,palmer,42.1584,-72.3287,-1.88,63,40,3.6,US,1701931313
140,yatou,37.15,122.3833,11.86,62,3,7.5,CN,1701931314
141,darwin,-12.4611,130.8418,34.97,55,40,5.66,AU,1701931272
142,gallup,35.5281,-108.7426,-1.09,80,0,2.06,US,1701931317
143,santa terezinha,-29.9002,-50.0904,22.46,94,100,1.64,BR,1701931318
144,kepsut,39.6889,28.1522,9.08,81,100,1.77,TR,1701931320
145,mhamid,29.82,-5.72,13.96,43,89,2.51,MA,1701931321
146,feijo,-8.1642,-70.3536,22.21,99,99,0.24,BR,1701931322
147,stanley,54.868,-1.6985,4.32,89,20,4.12,GB,1701931324
148,bambanglipuro,-7.95,110.2833,29.43,66,90,4.02,ID,1701931325
149,preobrazheniye,42.9019,133.9064,-2.28,48,0,8.29,RU,1701931326
150,uturoa,-16.7333,-151.4333,26.12,82,100,7.93,PF,1701931328
151,hamilton,39.1834,-84.5333,1.1,87,40,2.57,US,1701931329
152,pokhara,28.2333,83.9833,22.02,45,36,3.01,NP,1701931186
153,epinal,48.1833,6.45,-2.58,83,100,1.38,FR,1701931331
154,nemuro,43.3236,145.575,9.12,94,100,11.83,JP,1701931333
155,longyearbyen,78.2186,15.6401,-5.09,68,20,7.72,SJ,1701931334
156,olyokminsk,60.3736,120.4264,-41.47,99,69,0.32,RU,1701931336
157,fort bragg,35.139,-79.006,3.79,67,0,2.57,US,1701931337
158,lindi,-10.0,39.7167,29.86,72,95,0.9,TZ,1701931338
159,galesong,-5.3166,119.3661,30.01,66,100,1.7,ID,1701931340
160,vadso,70.0744,29.7487,-11.91,85,40,6.69,NO,1701931341
161,kapa'a,22.0752,-159.319,24.18,88,100,5.66,US,1701931342
162,villa regina,-39.1,-67.0667,17.77,28,59,3.54,AR,1701931344
163,isafjordur,66.0755,-23.124,-2.26,78,47,3.97,IS,1701931345
164,severo-yeniseyskiy,60.3725,93.0408,-32.46,87,18,0.45,RU,1701931346
165,utrik,11.2278,169.8474,27.38,82,90,11.03,MH,1701931348
166,gadzhiyevo,69.2551,33.3362,-15.63,97,45,5.87,RU,1701931349
167,canutama,-6.5339,-64.3831,23.23,95,100,1.15,BR,1701931350
168,flying fish cove,-10.4217,105.6791,28.82,74,75,3.6,CX,1701931307
169,tobelo,1.7284,128.0095,29.96,68,97,0.7,ID,1701931353
170,saint-pierre,-21.3393,55.4781,28.82,65,100,6.69,RE,1701931354
171,tefe,-3.3542,-64.7114,23.2,98,65,0.6,BR,1701931356
172,tsiombe,-25.3,45.4833,27.96,46,23,8.82,MG,1701931357
173,dongsheng,39.8161,109.9776,6.07,31,0,10.09,CN,1701931358
174,walvis bay,-22.9575,14.5053,15.61,66,4,3.5,NA,1701931359
175,nerchinsk,51.9833,116.5833,-20.54,90,100,2.02,RU,1701931362
176,harstad,68.799,16.5293,-1.03,94,100,8.49,NO,1701931363
177,behbahan,30.5959,50.2417,22.06,29,0,1.1,IR,1701931365
178,nago,26.5881,127.9761,22.24,56,1,4.08,JP,1701931366
179,georgetown,5.4112,100.3354,31.97,66,20,3.6,MY,1701931367
180,ponta delgada,37.7333,-25.6667,18.44,77,75,2.06,PT,1701931164
181,cativa,9.3606,-79.8436,26.77,86,91,4.92,PA,1701931370
182,yuzhno-kurilsk,44.0306,145.8556,7.43,84,100,12.89,RU,1701931371
183,juneau,58.3019,-134.4197,4.0,93,100,7.72,US,1701931373
184,xai-xai,-25.0519,33.6442,25.58,73,100,5.09,MZ,1701931375
185,aron,24.3833,77.4167,23.44,51,19,4.08,IN,1701931378
186,korla,41.7597,86.1469,5.93,33,89,3.13,CN,1701931379
187,weno,7.4515,151.8468,25.97,100,100,3.6,FM,1701931381
188,port blair,11.6667,92.75,30.02,74,40,2.57,IN,1701931382
189,lodwar,3.1191,35.5973,31.89,32,0,5.29,KE,1701931383
190,sur,22.5667,59.5289,25.93,35,0,1.78,OM,1701931385
191,aliwal north,-30.6937,26.7114,17.04,81,100,9.55,ZA,1701931386
192,ola,59.5833,151.2833,-11.03,91,100,8.26,RU,1701931387
193,nha trang,12.25,109.1833,30.0,73,50,5.72,VN,1701931273
194,nadym,65.5333,72.5167,-29.73,93,100,4.25,RU,1701931390
195,polyarnyy,69.1989,33.4478,-14.73,96,32,5.98,RU,1701931391
196,saint-philippe,-21.3585,55.7679,28.77,77,39,4.2,RE,1701931393
197,alvear,-29.0968,-56.5504,20.94,98,100,3.19,AR,1701931394
198,whitehorse,60.7161,-135.0538,-2.57,86,100,7.2,CA,1701931395
199,bushehr,28.9684,50.8385,24.05,46,0,0.0,IR,1701931398
200,villa gesell,-37.2639,-56.973,15.59,90,100,8.8,AR,1701931399
201,vardenis,40.1827,45.7311,4.67,69,69,2.81,AM,1701931401
202,pacific grove,36.6177,-121.9166,13.06,92,40,3.09,US,1701931402
203,port douglas,-16.4833,145.4667,27.22,68,9,5.32,AU,1701931403
204,la passe,45.5549,-0.8967,4.43,73,100,7.25,FR,1701931405
205,thames,-37.1333,175.5333,17.19,73,0,3.89,NZ,1701931406
206,antofagasta,-23.65,-70.4,17.6,83,42,1.93,CL,1701931407
207,dalnerechensk,45.9339,133.7225,-13.3,91,13,2.12,RU,1701931409
208,ma'rib,15.4591,45.3253,20.45,35,13,1.45,YE,1701931410
209,nar'yan-mar,67.6713,53.087,-14.38,96,100,4.47,RU,1701931411
210,port saint john's,-31.6229,29.5448,21.47,82,100,4.91,ZA,1701931413
211,vicosa,-20.7539,-42.8819,18.77,77,46,2.93,BR,1701931414
212,hammerfest,70.6634,23.6821,-5.75,63,41,10.8,NO,1701931193
213,chonchi,-42.6128,-73.8092,7.29,92,8,1.15,CL,1701931417
214,hovd,48.0056,91.6419,-0.87,15,0,9.99,MN,1701931418
215,vila velha,-20.3297,-40.2925,24.97,90,20,2.57,BR,1701931419
216,turmalina,-17.2856,-42.73,17.22,84,2,1.23,BR,1701931420
217,alofi,-19.0595,-169.9187,26.94,83,11,3.09,NU,1701931422
218,gauripur,26.0835,89.9616,23.38,67,98,4.4,IN,1701931423
219,lagoa,39.05,-27.9833,16.95,67,100,8.8,PT,1701931425
220,santa cruz,-17.8,-63.1667,23.7,94,20,2.06,BO,1701931186
221,thunder bay,48.4001,-89.3168,-1.01,86,0,2.57,CA,1701931428
222,talnakh,69.4865,88.3972,-26.0,97,87,3.06,RU,1701931430
223,st. john's,47.5649,-52.7093,-3.95,91,75,1.79,CA,1701931431
224,yreka,41.7354,-122.6345,5.17,95,75,0.0,US,1701931432
225,taoudenni,22.6783,-3.9836,19.14,17,100,3.64,ML,1701931434
226,bay harbor,30.1471,-85.6146,8.97,80,0,3.09,US,1701931435
227,langzhong,31.5504,105.9938,17.0,49,0,2.07,CN,1701931436
228,coquimbo,-29.9533,-71.3436,13.85,94,75,1.54,CL,1701931390
229,torghay,49.6339,63.4981,-10.43,58,47,4.73,KZ,1701931439
230,badger,64.8,-147.5333,-13.07,81,100,2.06,US,1701931440
231,zemetchino,53.4973,42.6163,-12.86,95,21,2.42,RU,1701931442
232,khandyga,62.6667,135.6,-39.59,96,100,1.16,RU,1701931443
233,quellon,-43.1167,-73.6167,6.81,92,10,1.67,CL,1701931444
234,dadukou,26.5479,101.7054,17.84,60,99,0.83,CN,1701931445
235,juan griego,11.0817,-63.9655,25.43,86,100,3.87,VE,1701931447
236,monrovia,6.3005,-10.7969,23.87,91,10,2.46,LR,1701931448
237,mogocha,53.7333,119.7667,-23.24,87,60,0.55,RU,1701931449
238,san antonio de pale,-1.4014,5.6325,25.5,87,100,5.3,GQ,1701931451
239,margate,51.3813,1.3862,6.28,87,98,4.92,GB,1701931452
240,chervyen',53.7059,28.4313,-7.83,95,100,3.93,BY,1701931453
241,haiku-pauwela,20.9219,-156.3051,24.47,74,20,4.12,US,1701931455
242,asaita,11.5636,41.4394,27.96,36,6,6.56,ET,1701931456
243,bardai,11.65,7.2333,19.48,19,69,4.63,NG,1701931457
244,paramirim,-13.4425,-42.2389,17.5,91,2,1.98,BR,1701931459
245,nurota,40.5614,65.6886,7.77,46,100,3.47,UZ,1701931460
246,tolanaro,-25.0319,46.9987,26.04,65,40,6.17,MG,1701931461
247,westport,41.1415,-73.3579,0.42,74,0,2.57,US,1701931463
248,kavaratti,10.5669,72.642,28.16,70,99,4.38,IN,1701931464
249,launceston,-41.45,147.1667,22.8,43,58,9.77,AU,1701931465
250,aykhal,66.0,111.5,-25.67,99,98,1.82,RU,1701931467
251,marsa alam,25.0757,34.8918,23.39,56,0,4.87,EG,1701931468
252,lompoc,34.6391,-120.4579,13.4,84,100,3.13,US,1701931469
253,cannonvale,-20.2833,148.7,26.66,63,10,7.96,AU,1701931471
254,awjilah,29.1081,21.2869,16.78,38,3,4.52,LY,1701931472
255,pasni,25.2631,63.471,23.47,47,0,1.47,PK,1701931473
256,ulladulla,-35.35,150.4667,25.43,72,83,2.77,AU,1701931475
257,farafangana,-22.8167,47.8333,25.39,68,100,3.4,MG,1701931476
258,ust'-ordynskiy,52.805,104.7508,-14.06,85,100,6.71,RU,1701931477
259,bubaque,11.2833,-15.8333,27.32,66,31,2.34,GW,1701931479
260,howard springs,-12.497,131.047,34.93,52,27,3.53,AU,1701931480
261,san patricio,28.017,-97.5169,18.91,85,100,2.83,US,1701931483
262,kosh-agach,50.0,88.6667,-14.83,84,100,3.58,RU,1701931484
263,greenville,35.6127,-77.3663,0.63,87,0,0.0,US,1701931485
264,port lincoln,-34.7333,135.8667,21.81,56,100,3.61,AU,1701931486
265,siloam springs,36.1881,-94.5405,9.31,62,0,4.63,US,1701931488
266,yanchep,-31.55,115.6833,27.07,58,72,9.18,AU,1701931490
267,kapuskasing,49.4169,-82.4331,-4.0,86,100,4.12,CA,1701931492
268,les cayes,18.2,-73.75,24.41,83,5,3.58,HT,1701931493
269,nizhneangarsk,55.7833,109.55,-20.55,79,37,4.47,RU,1701931495
270,xinzhi,36.4989,111.7047,15.13,21,0,2.34,CN,1701931496
271,palikir - national government center,6.9248,158.1611,27.41,89,100,2.57,FM,1701931497
272,madison,34.7334,-86.5667,2.64,88,0,1.34,US,1701931499
273,keflavik,64.0049,-22.5624,3.95,60,0,8.23,IS,1701931464
274,mejit,10.2753,170.8646,27.54,84,40,11.33,MH,1701931501
275,fale old settlement,-9.3852,-171.2468,29.31,75,100,2.94,TK,1701931502
276,palanpur,24.1667,72.4333,25.45,36,0,2.34,IN,1701931504
277,atbasar,51.8,68.3333,-22.51,90,7,3.51,KZ,1701931505
278,aldinga beach,-35.2793,138.4604,31.91,36,100,3.21,AU,1701931507
279,yaring,6.8662,101.3689,29.05,73,100,5.22,TH,1701931508
280,yemva,62.59,50.8594,-27.65,99,22,0.59,RU,1701931509
281,namibe,-15.1961,12.1522,24.13,83,100,1.21,AO,1701931511
282,rio grande,-32.035,-52.0986,19.41,91,2,3.36,BR,1701931512
283,bambari,5.768,20.6757,27.63,65,100,1.22,CF,1701931513
284,iqaluit,63.7506,-68.5145,-14.15,78,0,2.57,CA,1701931515
285,usinsk,65.9939,57.5281,-26.07,98,87,3.13,RU,1701931516
286,tuy hoa,13.0833,109.3,26.41,80,34,4.36,VN,1701931517
287,pariaman,-0.619,100.12,31.03,77,97,2.0,ID,1701931519
288,curumani,9.1999,-73.5427,24.44,83,100,1.34,CO,1701931520
289,vangaindrano,-23.35,47.6,24.0,79,100,3.22,MG,1701931521
290,santa maria do suacui,-18.1903,-42.4142,17.86,89,5,0.51,BR,1701931523
291,fortuna,40.5982,-124.1573,10.19,94,100,1.34,US,1701931524
292,karatuzskoye,53.6072,92.8667,-14.79,95,100,3.58,RU,1701931525
293,nizhnyaya tavda,57.6731,66.1725,-26.97,87,12,3.27,RU,1701931527
294,shache,38.4167,77.2406,16.0,10,5,0.52,CN,1701931528
295,vytegra,61.0064,36.4481,-15.67,99,98,1.52,RU,1701931322
296,nova xavantina,-14.6667,-52.35,25.21,58,8,0.83,BR,1701931531
297,faya-largeau,17.9257,19.1043,20.75,24,26,7.12,TD,1701931532
298,mahina,-17.5065,-149.489,23.87,88,40,3.09,PF,1701931533
299,malvan,16.0667,73.4667,29.33,54,65,3.49,IN,1701931535
300,piskivka,50.6938,29.6193,-6.65,92,100,3.51,UA,1701931536
301,horta,38.5333,-28.6333,15.57,79,100,1.79,PT,1701931537
302,cernavoda,44.3667,28.0167,2.58,89,100,5.97,RO,1701931539
303,callao,-12.0667,-77.15,20.95,82,75,3.09,PE,1701931540
304,kailua-kona,19.6406,-155.9956,25.98,78,100,2.06,US,1701931541
305,alaghsas,17.0187,8.0168,15.94,25,6,3.09,NE,1701931543
306,petropavlovsk-kamchatsky,53.0452,158.6483,-6.67,72,40,4.0,RU,1701931473
307,sorong,-0.8833,131.25,28.49,78,61,2.11,ID,1701931545
308,siwa oasis,29.2041,25.5195,16.29,49,100,2.19,EG,1701931546
309,tondano,1.3038,124.9112,29.05,69,65,0.5,ID,1701931548
310,shar'ya,58.3686,45.5144,-18.9,99,21,0.45,RU,1701931549
311,acapulco de juarez,16.8634,-99.8901,27.9,89,100,1.54,MX,1701931551
312,korem,12.5058,39.5228,14.99,45,7,2.63,ET,1701931552
313,prince rupert,54.3161,-130.3201,5.83,84,100,5.66,CA,1701931553
314,happy valley-goose bay,53.3168,-60.3315,-6.83,68,100,5.14,CA,1701931555
315,kharagpur,22.3333,87.3333,19.84,87,100,3.11,IN,1701931256
316,ishigaki,24.3448,124.1572,23.07,56,20,7.2,JP,1701931557
317,pergamino,-33.89,-60.5736,16.21,97,1,2.98,AR,1701931559
318,la ronge,55.1001,-105.2842,-0.86,80,75,2.06,CA,1701931560
319,qoryooley,1.7878,44.53,29.6,49,86,6.2,SO,1701931561
320,kismayo,-0.3582,42.5454,29.61,67,100,5.9,SO,1701931563
321,sihanoukville,10.6093,103.5296,29.97,74,40,4.63,KH,1701931564
322,nadi,-17.8,177.4167,29.0,74,75,4.63,FJ,1701931565
323,kavieng,-2.5744,150.7967,28.07,79,95,4.7,PG,1701931567
324,lihue,21.9789,-159.3672,23.77,85,100,5.66,US,1701931568
325,taltal,-25.4,-70.4833,16.97,78,0,0.58,CL,1701931569
326,isla mujeres,21.2311,-86.731,23.98,63,100,6.02,MX,1701931572
327,kot malik barkhurdar,30.1944,66.993,14.14,16,5,1.19,PK,1701931575
328,balkashino,52.5167,68.7667,-23.29,89,7,3.29,KZ,1701931576
329,pushkinskiye gory,57.0209,28.9103,-15.44,98,95,1.56,RU,1701931577
330,sitka,57.0531,-135.33,5.94,70,100,5.66,US,1701931544
331,shihezi,44.3,86.0333,3.92,51,100,5.34,CN,1701931580
332,pamandzi,-12.7967,45.2794,28.88,74,0,3.09,YT,1701931581
333,bredasdorp,-34.5322,20.0403,23.25,56,0,3.16,ZA,1701931582
334,puerto ayora,-0.7393,-90.3518,23.75,85,95,3.34,EC,1701931584
335,tshabong,-26.05,22.45,30.47,24,32,7.36,BW,1701931585
336,balakhta,55.38,91.6,-20.79,92,100,4.86,RU,1701931586
337,maragogi,-9.0122,-35.2225,24.02,86,34,2.95,BR,1701931588
338,dalandzadgad,43.5708,104.425,8.45,27,14,14.31,MN,1701931589
339,pasuquin,18.3328,120.6177,29.97,70,40,6.69,PH,1701931837
340,sandnessjoen,66.0217,12.6316,0.23,69,75,3.09,NO,1701931839
341,aginskoye,51.1,114.53,-17.08,93,100,3.83,RU,1701931842
342,qaqortoq,60.7167,-46.0333,1.85,61,100,4.74,GL,1701931843
343,martakert,40.2104,46.821,11.25,64,100,0.8,AZ,1701931846
344,nuuk,64.1835,-51.7216,-1.72,62,98,5.43,GL,1701931847
345,nueva concepcion,14.2,-91.3,22.59,76,60,1.89,GT,1701931848
346,cowra,-33.8333,148.6833,31.11,26,95,7.89,AU,1701931850
347,borzya,50.3833,116.5167,-16.17,95,100,5.44,RU,1701931851
348,novodvinsk,64.4165,40.8122,-28.14,97,25,1.61,RU,1701931802
349,priob'ye,62.5206,65.5964,-35.66,94,6,2.61,RU,1701931853
350,jambi city,-1.6,103.6167,33.09,49,100,1.32,ID,1701931855
351,khorixas,-20.3667,14.9667,26.29,35,2,2.27,NA,1701931856
352,azzano decimo,45.8831,12.7131,3.87,90,40,2.06,IT,1701931857
353,kodinsk,58.6881,99.1844,-32.53,87,51,1.75,RU,1701931860
354,fyodorovka,53.6314,62.7078,-22.31,84,19,3.79,KZ,1701931861
355,chernyshevskiy,63.0128,112.4714,-42.68,100,90,0.27,RU,1701931770
356,ambon,-3.6954,128.1814,30.08,74,40,2.57,ID,1701931811
357,katsuren-haebaru,26.3369,127.8719,22.21,46,0,4.63,JP,1701931865
358,portland,45.5234,-122.6762,9.69,95,100,5.36,US,1701931866
359,bumba,2.1833,22.4667,22.75,95,99,1.37,CD,1701931868
360,phang nga,8.4509,98.5298,31.02,77,68,0.58,TH,1701931869
361,smirnykh,49.75,142.8333,1.83,99,100,3.74,RU,1701931871
362,mount gambier,-37.8333,140.7667,20.7,43,0,3.49,AU,1701931872
363,jindabyne,-36.4167,148.6333,23.09,43,74,4.92,AU,1701931873
364,lubango,-14.9172,13.4925,16.92,100,40,1.03,AO,1701931875
365,laojunmiao,39.8333,97.7333,7.38,13,86,2.27,CN,1701931876
366,marang,5.2056,103.2059,24.95,86,100,2.84,MY,1701931877
367,ubari,26.5921,12.7805,14.35,26,0,4.98,LY,1701931879
368,nizhneudinsk,54.9076,99.0276,-18.51,88,100,4.63,RU,1701931663
369,scottsburg,38.6856,-85.7702,0.08,53,93,3.84,US,1701931881
370,al wajh,26.2455,36.4525,21.97,60,0,1.54,SA,1701931883
371,kokstad,-30.5472,29.4241,16.25,90,100,2.81,ZA,1701931884
372,kutum,14.2,24.6667,19.37,15,67,2.79,SD,1701931885
373,hotan,37.0997,79.9269,16.65,5,3,2.33,CN,1701931887
374,oranjemund,-28.55,16.4333,19.97,71,29,2.03,NA,1701931888
375,jumla,29.2747,82.1838,15.67,19,2,2.74,NP,1701931889
376,kotlas,61.2611,46.6556,-21.08,97,23,1.34,RU,1701931891
377,biloela,-24.4167,150.5,33.09,24,0,8.08,AU,1701931892
378,changping,40.2186,116.2197,8.8,25,0,1.18,CN,1701931893
379,east lismore,-28.8193,153.2874,28.64,70,0,3.24,AU,1701931895
380,mallammaduri,12.565,9.9573,21.14,20,6,4.6,NG,1701931896
381,anaconda,46.1285,-112.9423,7.55,74,99,2.94,US,1701931897
382,itaituba,-4.2761,-55.9836,24.69,81,62,0.66,BR,1701931899
383,el granada,37.5027,-122.4694,14.36,90,75,3.6,US,1701931900
384,shevchenko,48.5,35.0,-0.5,82,100,5.52,UA,1701931634
385,lata,40.1629,-8.3327,12.67,93,100,2.67,PT,1701931902
386,tartouss,34.889,35.8866,19.54,72,100,6.15,SY,1701931904
387,lauenburg,53.372,10.5565,0.91,99,100,1.32,DE,1701931816
388,annau,37.8876,58.516,7.72,81,100,3.09,TM,1701931906
389,kiunga,-6.1219,141.2906,30.01,76,30,0.65,PG,1701931908
390,belabo,4.9333,13.3,22.56,89,67,0.41,CM,1701931910
391,pancas,-19.225,-40.8514,20.57,98,99,0.51,BR,1701931912
392,carnarvon,-24.8667,113.6333,25.15,62,0,11.48,AU,1701931913
393,sinop,41.7711,34.8709,10.61,75,93,3.46,TR,1701931914
394,murun-kuren,49.6342,100.1625,-5.99,77,100,7.96,MN,1701931916
395,itoman,26.1247,127.6694,22.21,53,20,6.17,JP,1701931918
396,mili,6.0815,171.735,27.77,82,83,9.67,MH,1701931920
397,sharlyk,52.9167,54.75,-16.09,92,12,1.85,RU,1701931921
398,hirara,24.8,125.2833,22.92,60,20,6.69,JP,1701931922
399,nuku'alofa,-21.1333,-175.2,26.49,74,5,2.62,TO,1701931923
400,mudanjiang,44.5833,129.6,-8.77,65,6,6.83,CN,1701931925
401,santana,-0.0583,-51.1817,26.1,94,75,1.54,BR,1701931926
402,labrador city,52.9463,-66.9114,-13.05,92,100,2.57,CA,1701931927
403,mandalgovi,45.7625,106.2708,3.08,44,13,10.57,MN,1701931929
404,holualoa,19.6228,-155.9522,23.91,77,100,2.06,US,1701931930
405,anapa,44.8908,37.3239,4.19,86,0,6.0,RU,1701931652
406,garko,10.1751,11.1646,23.8,14,91,5.08,NG,1701931933
407,nakanojomachi,36.5833,138.85,7.34,61,12,6.91,JP,1701931934
408,colonia,50.9333,6.95,1.87,92,20,3.09,DE,1701931650
409,lerwick,60.1545,-1.1494,5.0,65,100,10.74,GB,1701931432
410,basco,20.4487,121.9702,23.71,78,100,14.8,PH,1701931938
411,makamba,-4.1348,29.804,21.74,76,74,0.15,BI,1701931939
412,boujniba,32.9005,-6.7746,9.99,86,99,2.07,MA,1701931941
413,dhidhdhoo,6.8833,73.1,27.93,79,99,4.68,MV,1701931942
414,kuchaiburi,22.2667,86.1667,19.54,91,100,2.71,IN,1701931943
415,nchelenge,-9.3451,28.734,20.82,88,100,1.3,ZM,1701931945
416,chulakkurgan,43.765,69.1814,-1.49,48,100,2.66,KZ,1701931666
417,eureka,40.8021,-124.1637,10.37,95,30,2.24,US,1701931947
418,beyneu,45.3167,55.2,0.31,65,100,8.64,KZ,1701931948
419,kill devil hills,36.0307,-75.676,5.01,61,0,6.17,US,1701931950
420,tostado,-29.232,-61.7692,18.32,86,1,2.21,AR,1701931951
421,bengkulu,-3.8004,102.2655,27.22,84,100,3.6,ID,1701931952
422,turkestan,43.3333,68.25,4.62,39,100,1.53,KZ,1701931953
423,tiadiaye,14.4167,-16.7,22.45,35,2,3.67,SN,1701931955
424,junin de los andes,-39.9504,-71.0694,6.53,80,3,2.44,AR,1701931956
425,geraldton,-28.7667,114.6,25.23,53,40,10.29,AU,1701931958
426,murzuq,25.9155,13.9184,16.45,23,0,4.08,LY,1701931959
427,alpena,45.0617,-83.4327,1.18,86,100,5.14,US,1701931960
428,gouyave,12.1646,-61.7296,26.43,89,40,5.14,GD,1701931962
429,vilyuysk,63.7553,121.6247,-45.56,100,69,1.34,RU,1701931963
430,nay pyi taw,19.745,96.1297,30.29,54,35,1.6,MM,1701931964
431,dauphin,51.1494,-100.0502,3.08,70,100,1.03,CA,1701931965
432,fisterra,42.9049,-9.2629,15.42,97,100,11.29,ES,1701931807
433,jiuquan,39.7432,98.5174,9.24,13,65,2.28,CN,1701931968
434,taft,31.7471,54.2088,11.97,19,0,2.06,IR,1701931970
435,flin flon,54.7682,-101.865,-7.22,96,43,1.77,CA,1701931971
436,kolokani,13.5728,-8.0339,20.01,21,72,3.66,ML,1701931972
437,es castell,39.8795,4.2854,9.38,87,20,2.06,ES,1701931974
438,tommot,58.9564,126.2925,-37.1,98,89,1.08,RU,1701931976
439,booue,-0.0921,11.9385,24.73,92,81,0.22,GA,1701931977
440,shimoda,34.6667,138.95,17.2,56,1,14.43,JP,1701931979
441,huoqiu chengguanzhen,32.3547,116.2939,23.15,20,0,6.01,CN,1701931980
442,berdyansk,46.7503,36.7944,3.17,89,100,10.76,UA,1701931793
443,deqen,29.9618,90.7188,6.08,23,100,1.48,CN,1701931983
444,bonthe,7.5264,-12.505,24.64,94,25,1.92,SL,1701931984
445,turpan,42.9333,89.1667,6.95,33,100,0.57,CN,1701931508
446,constantia,44.1833,28.65,2.38,88,100,7.59,RO,1701931987
447,lodja,-3.4833,23.4333,22.68,96,100,0.49,CD,1701931988
448,salekhard,66.53,66.6019,-29.38,98,100,2.62,RU,1701931687
449,auki,-8.7676,160.7034,26.62,84,95,3.43,SB,1701931991
450,souillac,-20.5167,57.5167,27.21,83,75,4.12,MU,1701931992
451,'ali sabieh,11.1558,42.7125,25.07,56,39,8.66,DJ,1701931993
452,kununurra,-15.7667,128.7333,37.99,32,71,3.6,AU,1701931995
453,arica,-18.475,-70.3042,20.13,73,100,2.06,CL,1701931536
454,kurmuk,10.55,34.2833,30.64,22,5,3.72,SD,1701931997
455,campoverde,-8.4753,-74.8058,23.83,96,99,0.45,PE,1701931999
456,tara,56.8944,74.371,-28.08,90,14,2.54,RU,1701932000
457,santiago de cao,-7.9589,-79.2392,19.07,88,100,3.09,PE,1701932001
458,mersing,2.4312,103.8405,29.95,74,40,4.63,MY,1701932002
459,el jadid,33.2549,-8.506,16.39,89,65,3.02,MA,1701932004
460,douglas,41.3,-96.167,7.7,81,0,4.63,US,1701932005
461,hasaki,35.7333,140.8333,19.05,51,0,13.19,JP,1701932006
462,hassi messaoud,31.6804,6.0729,9.92,66,0,2.06,DZ,1701932008
463,karratha,-20.7377,116.8463,36.34,35,6,6.26,AU,1701932009
464,quesnel,52.9999,-122.5029,-1.72,93,100,0.0,CA,1701932010
465,laguna,38.421,-121.4238,12.38,92,0,3.09,US,1701932012
466,saint-francois,46.4154,3.9054,-0.74,100,100,1.54,FR,1701932013
467,labytnangi,66.6572,66.4183,-28.12,97,100,2.1,RU,1701932014
468,tadine,-21.55,167.8833,23.57,68,100,6.61,NC,1701932016
469,tindouf,27.6711,-8.1474,15.99,51,100,1.71,DZ,1701932017
470,verkhnevilyuysk,63.4453,120.3167,-45.39,100,70,0.48,RU,1701932018
471,road town,18.4167,-64.6167,27.07,74,0,2.54,VG,1701932020
472,adigrat,14.277,39.462,15.8,44,0,1.85,ET,1701932021
473,nouadhibou,20.931,-17.0347,21.47,56,100,5.55,MR,1701932022
474,heidelberg,-26.5048,28.3592,18.86,56,99,6.87,ZA,1701931836
475,buala,-8.145,159.5921,27.05,85,100,5.88,SB,1701932025
476,kone,-21.0595,164.8658,25.7,62,100,3.43,NC,1701932026
477,yambio,4.5721,28.3955,26.53,72,39,0.52,SS,1701932029
478,mirny,62.5353,113.9611,-43.76,57,75,0.22,RU,1701932030
479,hami,42.8,93.45,4.33,34,100,1.3,CN,1701932031
480,alvaraes,-3.2208,-64.8042,23.03,98,68,0.58,BR,1701932033
481,plastun,44.7561,136.2939,-5.13,50,100,7.02,RU,1701932034
482,ghanzi,-21.5667,21.7833,28.52,29,66,6.73,BW,1701932035
483,talcahuano,-36.7167,-73.1167,12.82,94,0,3.6,CL,1701932037
484,santa elena de uairen,4.6167,-61.1333,19.74,88,100,0.78,VE,1701932038
485,as suwayq,23.8494,57.4386,26.05,33,0,1.03,OM,1701932039
486,rabo de peixe,37.8,-25.5833,17.77,99,75,2.57,PT,1701932041
487,tamanrasset,22.785,5.5228,10.95,24,0,3.09,DZ,1701932042
488,quincy,42.2529,-71.0023,-2.97,73,7,0.89,US,1701932043
489,kupang,-10.1667,123.5833,34.32,59,75,4.63,ID,1701932044
490,tazacorte,28.629,-17.9293,19.54,83,100,3.6,ES,1701932046
491,kilindoni,-7.9139,39.6668,27.83,77,100,1.52,TZ,1701932047
492,saldanha,-33.0117,17.9442,17.03,72,0,3.57,ZA,1701932048
493,hastings,50.8552,0.5729,7.94,40,100,10.56,GB,1701932050
494,villa huidobro,-34.8383,-64.5869,12.84,90,0,2.47,AR,1701932052
495,broken hill,-31.95,141.4333,40.66,11,67,6.71,AU,1701932054
496,tromso,69.6496,18.957,-3.99,63,0,9.77,NO,1701931785
497,woolgoolga,-30.1106,153.2007,25.58,80,87,2.46,AU,1701932056
498,dunaivtsi,48.8891,26.8564,-2.58,80,100,4.54,UA,1701932058
499,azovo,54.6997,73.0237,-30.7,92,7,3.71,RU,1701932059
500,huarmey,-10.0681,-78.1522,19.49,89,100,3.23,PE,1701932061
501,smithers,54.7804,-127.1743,-2.82,100,100,1.54,CA,1701932062
502,toretsk,48.3987,37.8479,-1.89,85,100,6.81,UA,1701932063
503,wingham,43.8879,-81.3114,2.37,92,100,4.79,CA,1701932064
504,kristiansund,63.1115,7.732,-1.64,74,0,3.09,NO,1701932066
505,kamalpur,24.2,91.8333,19.27,99,100,2.01,IN,1701932067
506,palu,-0.8917,119.8707,30.19,76,86,1.87,ID,1701932068
507,inhambane,-23.865,35.3833,25.99,73,75,5.36,MZ,1701932070
508,benguela,-12.5763,13.4055,25.61,85,100,1.88,AO,1701932071
509,rasskazovo,52.6714,41.9033,-8.03,91,98,3.55,RU,1701932072
510,kirovsk,48.6375,38.6428,-2.68,88,100,7.35,UA,1701932074
511,fort st. john,56.2499,-120.8529,-3.06,68,20,4.63,CA,1701932075
512,gannan,47.9147,123.5031,-12.05,71,2,1.1,CN,1701932076
513,san luis de la loma,17.2706,-100.8939,24.54,79,91,2.17,MX,1701932077
514,lampang,18.3333,99.5,29.95,66,75,2.06,TH,1701932079
515,prabumulih,-3.45,104.25,31.79,61,100,0.6,ID,1701932080
516,al 'amarah,31.8406,47.1396,21.79,20,82,4.11,IQ,1701932014
517,bamboo flat,11.7,92.7167,31.05,70,40,2.06,IN,1701932083
518,nyandoma,61.669,40.1991,-19.05,100,81,1.34,RU,1701932084
519,alta,69.9689,23.2717,-10.41,74,40,5.14,NO,1701932085
520,barabai,-2.5833,115.3833,26.83,92,100,1.33,ID,1701932087
521,qarqaraly,49.4058,75.4742,-14.17,78,100,6.16,KZ,1701932089
522,bei'an,24.5399,109.533,23.11,29,13,0.59,CN,1701932091
523,coronel oviedo,-25.4167,-56.45,22.6,98,68,1.36,PY,1701932092
524,fabens,31.5023,-106.1586,12.49,34,14,2.57,US,1701932093
525,urumqi,43.801,87.6005,1.53,52,0,6.0,CN,1701931849
526,gonabad,34.3529,58.6837,15.03,14,100,1.21,IR,1701932096
527,dhulikhel,27.6189,85.5529,12.75,53,100,0.91,NP,1701932097
528,dunedin,-45.8742,170.5036,14.89,61,96,0.45,NZ,1701932098
529,newcastle west,52.4492,-9.0611,11.8,94,100,6.66,IE,1701932101
530,jutai,-5.1833,-68.9,22.82,99,100,0.58,BR,1701932102
531,konarka,19.9,86.1167,23.22,83,99,6.27,IN,1701932104
532,alo,7.4178,6.7371,26.45,71,90,0.67,NG,1701932105
533,i-n-salah,27.1935,2.4607,16.31,37,1,3.76,DZ,1701932106
534,rundu,-17.9333,19.7667,29.46,35,88,1.83,NA,1701932108
535,talara,-4.5772,-81.2719,20.51,84,84,5.55,PE,1701932109
536,yaren,-0.5472,166.916,27.61,83,100,8.25,NR,1701932110
537,berezovyy,51.6667,135.7,-10.87,96,100,0.87,RU,1701932112
538,hadibu,12.65,54.0333,26.0,63,100,6.92,YE,1701932113
539,gardez,33.5974,69.2259,9.86,15,19,1.2,AF,1701932114
540,katsuura,35.1333,140.3,17.01,57,0,14.36,JP,1701932115
541,beichengqu,40.4394,113.1536,5.24,31,0,6.66,CN,1701932117
542,suileng,47.25,127.0833,-13.74,88,28,1.97,CN,1701932118
543,sake,-1.5736,29.045,21.83,79,85,0.39,CD,1701932119
544,dongcun,36.7767,121.1597,11.88,60,0,7.11,CN,1701932121
545,charters towers,-20.1,146.2667,33.4,29,43,9.08,AU,1701932122
546,balqash,46.8481,74.995,-3.67,58,20,3.0,KZ,1701932126
547,kuqa,41.7278,82.9364,8.88,27,12,1.38,CN,1701932127
548,kelibia,36.8476,11.0939,12.14,94,40,1.54,TN,1701932129
549,minas de marcona,-15.2119,-75.1103,13.9,88,100,4.74,PE,1701931922
550,mount pearl,47.5166,-52.7813,-4.41,91,75,0.45,CA,1701932131
551,barrouallie,13.2333,-61.2667,25.43,81,21,4.99,VC,1701932133
552,ponot,8.452,123.0222,28.09,83,84,6.91,PH,1701932134
553,birjand,32.8663,59.2211,11.26,9,0,0.0,IR,1701932135
554,kitimat,54.0524,-128.6534,3.21,64,91,1.07,CA,1701932137
555,cambria,35.5641,-121.0808,13.01,97,100,0.89,US,1701932138
556,bikenibeu village,1.3673,173.1241,28.59,79,100,7.57,KI,1701932139
557,trairi,-3.2778,-39.2689,27.19,72,100,6.49,BR,1701932141
558,mogadishu,2.0371,45.3438,28.93,74,0,5.14,SO,1701932142
559,rongelap,11.1635,166.8941,27.48,82,15,10.04,MH,1701932143
560,lima,-12.0432,-77.0282,19.94,83,75,3.09,PE,1701932107
561,kayangel,8.0823,134.7173,28.74,75,100,5.66,PW,1701932146
562,moree,-29.4667,149.85,38.44,18,0,1.0,AU,1701932147
563,pathein,16.7833,94.7333,31.51,54,27,2.1,MM,1701932149
564,selfoss,63.9331,-20.9971,-2.23,51,94,6.26,IS,1701932150
565,tvoroyri,61.5556,-6.8111,7.36,74,90,12.41,FO,1701932151
566,kidal,18.4411,1.4078,21.91,16,1,3.25,ML,1701932153
567,lumut,4.2323,100.6298,31.01,70,40,3.6,MY,1701932154
568,escanaba,45.7453,-87.0646,3.17,86,0,2.57,US,1701932028
569,zahedan,29.4963,60.8629,17.95,19,0,2.06,IR,1701932158
570,odesskoye,54.2111,72.9651,-27.59,91,7,3.91,RU,1701932159
571,pont rouge,48.8833,-72.0825,-15.84,97,96,1.82,CA,1701932160
572,buka,40.8108,69.1986,8.74,57,100,1.61,UZ,1701932162
573,mishkino,55.3389,63.9175,-25.52,84,11,3.88,RU,1701932163
574,martinsburg,39.4562,-77.9639,1.95,69,98,1.36,US,1701932088
575,mucumpiz,8.4167,-71.1333,11.33,87,100,1.3,VE,1701932166
576,n'zeto,-7.2312,12.8666,27.82,70,76,3.63,AO,1701932167
577,acarau,-2.8856,-40.12,26.79,77,100,7.58,BR,1701932168
578,kasongo,-4.45,26.6667,23.73,86,96,0.62,CD,1701932170
579,salmon arm,50.6998,-119.3024,4.62,100,100,0.51,CA,1701932171
580,tucuma,-0.1833,-50.05,24.91,93,53,2.63,BR,1701932172
581,ust'-kulom,61.6864,53.6902,-30.83,99,46,0.67,RU,1701932174
582,porto novo,6.4965,2.6036,25.9,84,100,1.25,BJ,1701932176
583,papar,5.7333,115.9333,33.0,78,100,2.62,MY,1701932178
584,arkhangel'sk,64.5401,40.5433,-27.94,76,0,2.0,RU,1701932054
585,napili-honokowai,20.9708,-156.6705,24.54,80,7,7.79,US,1701932180
586,tangalle,6.024,80.7911,30.09,73,99,2.67,LK,1701932182
587,lensk,60.7253,114.9278,-35.8,97,97,1.56,RU,1701932183
588,tra mhor,52.1624,-7.1524,11.16,86,100,6.26,IE,1701932185
589,fauske,67.2588,15.3918,-3.92,79,100,4.56,NO,1701932187
590,saynshand,44.8824,110.1163,0.85,71,34,5.5,MN,1701932188
591,sujiatun,41.6592,123.3392,6.1,31,0,4.0,CN,1701932190
592,baise city,23.8997,106.6133,23.69,42,63,1.09,CN,1701932191
593,gereida,11.2811,25.1414,24.7,12,12,8.0,SD,1701932192
594,cabanas,22.9758,-82.9219,21.01,64,100,6.2,CU,1701932193
595,las vegas,36.175,-115.1372,19.38,24,0,9.26,US,1701931966
596,utete,-7.986,38.758,30.42,66,69,1.44,TZ,1701932196
597,parfino,57.9731,31.6481,-16.64,98,95,1.74,RU,1701932197
598,pandan,14.0453,124.1694,27.94,73,100,4.51,PH,1701932199
599,moroto,2.5345,34.6666,26.12,39,0,1.52,UG,1701932200
600,wudil,11.8107,8.8451,20.71,18,9,3.07,NG,1701932201
